[{"index":"1307","name":"Tilden Playground","category":"Public","address":"Tilden Ave, East 48 to East 49 St","hours":"park hours","handicap":"no","editor":""},{"index":"1294","name":"Shore Road Park","category":"Public","address":"72nd St to Harbor View","hours":"park hours","handicap":"","editor":""},{"index":"1288","name":"Roebling Playground","category":"Public","address":"Wilson & Lee Ave, Taylor St","hours":"park hours","handicap":"no","editor":""},{"index":"1271","name":"Paul W. Kolbert Park/Rachel Haber Cohen Playground","category":"Public","address":"Ave L, East 17 to East 18 St","hours":"park hours","handicap":"no","editor":""},{"index":"1237","name":"Jackie Robinson Playground","category":"Public","address":"Sullivan Place & Franklin Ave, Montgomery St","hours":"park hours","handicap":"no","editor":""},{"index":"1232","name":"Heckscher Playground","category":"Public","address":"Grove St to Linden St","hours":"park hours","handicap":"yes","editor":""},{"index":"1219","name":"Fox Playground","category":"Public","address":"Ave H, East 54 to E 55 St","hours":"park hours","handicap":"yes","editor":""},{"index":"1204","name":"Coney Island Beach","category":"Public","address":"Corbin Pl to Coney Island Ave","hours":"park hours","handicap":"no","editor":""},{"index":"1149","name":"Sara D. Roosevelt Park","category":"Public","address":"East Houston St to Canal St","hours":"park hours","handicap":"yes","editor":""},{"index":"1119","name":"James J. Walker Park (Carmine Rec Center)","category":"Public","address":"Hudson, Leroy, Clarkson streets, 7 ave","hours":"park hours","handicap":"no","editor":""},{"index":"1122","name":"Marcus Garvey Park (pool)","category":"Public","address":"Madison Avenue, East 120 to East 124","hours":"nyr","handicap":"","editor":""},{"index":"445","name":"Public Toilets","category":"Public","address":"By the entrance to Chelsea Pier","hours":"","handicap":"No","editor":"241"}]