[
  {
    "index": "2675",
    "name": "High Rock Park",
    "category": "Public",
    "address": "Richmond Pkwy & Moravian Cemetery at Rockland Ave",
    "hours": "park hours",
    "handicap": "yes",
    "editor": ""
  },
  {
    "index": "2680",
    "name": "Markham Playground",
    "category": "Public",
    "address": "Willowbrook Pkwy & Forest ave & Houston St",
    "hours": "park hours",
    "handicap": "yes",
    "editor": ""
  },
  {
    "index": "2657",
    "name": "Vleigh Place Playground",
    "category": "Public",
    "address": "Vleigh Pl & 141 St",
    "hours": "park hours",
    "handicap": "no",
    "editor": ""
  },
  {
    "index": "2668",
    "name": "Conference House Park",
    "category": "Public",
    "address": "Pittsville St & Hylan Blvd & Surf ave & Richard av...",
    "hours": "park hours",
    "handicap": "yes",
    "editor": ""
  },
  {
    "index": "2693",
    "name": "Todt Hill Playground",
    "category": "Public",
    "address": "Schmidts Ln & Manor Rd",
    "hours": "park hours",
    "handicap": "yes",
    "editor": ""
  },
  {
    "index": "2679",
    "name": "Mahoney Playground",
    "category": "Public",
    "address": "Beechwood ave & Cleveland ave",
    "hours": "park hours",
    "handicap": "no",
    "editor": ""
  },
  {
    "index": "2690",
    "name": "South Beach Wetlands",
    "category": "Public",
    "address": "Quintard St. Bet. Quincy Ave & Father Capodanno Bl...",
    "hours": "park hours",
    "handicap": "yes",
    "editor": ""
  },
  {
    "index": "2665",
    "name": "Blood Root Valley",
    "category": "Public",
    "address": "Rockland ave & Manor ave & Brielle ave & Forest Hi...",
    "hours": "park hours",
    "handicap": "yes",
    "editor": ""
  },
  {
    "index": "2661",
    "name": "Whitestone Playground",
    "category": "Public",
    "address": "12 Ave & 153 St",
    "hours": "park hours",
    "handicap": "no",
    "editor": ""
  },
  {
    "index": "2653",
    "name": "Tall Oak Playground",
    "category": "Public",
    "address": "64 Ave & 218  st & 219 St",
    "hours": "park hours",
    "handicap": "no",
    "editor": ""
  },
  {
    "index": "2643",
    "name": "Real Good Park ",
    "category": "Public",
    "address": "LIE, 99 St & 62 Ave",
    "hours": "park hours",
    "handicap": "yes",
    "editor": ""
  },
  {
    "index": "2639",
    "name": "Playground 75",
    "category": "Public",
    "address": "106 St & 75 Ave",
    "hours": "park hours",
    "handicap": "",
    "editor": ""
  },
  {
    "index": "2614",
    "name": "Kissena Park",
    "category": "Public",
    "address": "Rose Ave & Oak Ave",
    "hours": "park hours",
    "handicap": "no",
    "editor": ""
  },
  {
    "index": "2606",
    "name": "John Golden Park",
    "category": "Public",
    "address": "215 Pl & south of 32 Ave",
    "hours": "park hours",
    "handicap": "yes",
    "editor": ""
  },
  {
    "index": "2593",
    "name": "Haggerty Park",
    "category": "Public",
    "address": "202 St & Jamaica Ave",
    "hours": "park hours",
    "handicap": "yes",
    "editor": ""
  },
  {
    "index": "2584",
    "name": "Forest Park ",
    "category": "Public",
    "address": "Park Lane South & Abingdon Rd",
    "hours": "park hours",
    "handicap": "no",
    "editor": ""
  },
  {
    "index": "2587",
    "name": "Frank Golden Park",
    "category": "Public",
    "address": "132 to 138 St & 14 Rd",
    "hours": "park hours",
    "handicap": "",
    "editor": ""
  },
  {
    "index": "2578",
    "name": "Flushing Meadows Corona Park",
    "category": "Public",
    "address": "Park Drive E & 73 Terrace",
    "hours": "park hours",
    "handicap": "no",
    "editor": ""
  },
  {
    "index": "2571",
    "name": "Ederle Comfort Station",
    "category": "Public",
    "address": "Grand Central pkwy & Whitestone Exwy between 111 S...",
    "hours": "park hours",
    "handicap": "yes",
    "editor": ""
  },
  {
    "index": "2573",
    "name": "Emerald Playground",
    "category": "Public",
    "address": "14 St between Jewe Ave & 71 Ave",
    "hours": "park hours",
    "handicap": "no",
    "editor": ""
  },
  {
    "index": "2574",
    "name": "Equity Park ",
    "category": "Public",
    "address": "90 St & 88 ave & 89 Ave",
    "hours": "park hours",
    "handicap": "no",
    "editor": ""
  },
  {
    "index": "2562",
    "name": "Crocheron Park Field House",
    "category": "Public",
    "address": "34th Ave & 214th Pl & 34th Rd & 214th Ln & 35th Av...",
    "hours": "park hours",
    "handicap": "no",
    "editor": ""
  },
  {
    "index": "2561",
    "name": "Corona Golf Playground",
    "category": "Public",
    "address": "109 St & 46-47 Ave",
    "hours": "park hours",
    "handicap": "no",
    "editor": ""
  },
  {
    "index": "2560",
    "name": "College Point Park",
    "category": "Public",
    "address": "130th St & 23rd Ave",
    "hours": "park hours",
    "handicap": "no",
    "editor": ""
  },
  {
    "index": "2546",
    "name": "Bayside Fields ",
    "category": "Public",
    "address": "204 St & 29 Ave, Clearview Expressway",
    "hours": "park hours",
    "handicap": "yes",
    "editor": ""
  },
  {
    "index": "2540",
    "name": "Arrow Community Garden",
    "category": "Public",
    "address": "35th St & 36th Ave",
    "hours": "park hours",
    "handicap": "no",
    "editor": ""
  },
  {
    "index": "2531",
    "name": "Barney Building (NYU)",
    "category": "Other",
    "address": "34 Stuyvesant St",
    "hours": "Building Hours",
    "handicap": "",
    "editor": ""
  },
  {
    "index": "2530",
    "name": "kimball Block (NYU)",
    "category": "Other",
    "address": "283 Mercer St",
    "hours": "Building Hours",
    "handicap": "",
    "editor": ""
  },
  {
    "index": "2502",
    "name": "Burger King",
    "category": "Fast Food",
    "address": "39-24 104th St",
    "hours": "Store Hours",
    "handicap": "",
    "editor": ""
  },
  {
    "index": "1409",
    "name": "Bellevue Hospital Center",
    "category": "Other",
    "address": "462 1st Ave",
    "hours": "Store Hours",
    "handicap": "",
    "editor": ""
  },
  {
    "index": "1407",
    "name": "New York Presbyterian Hospital",
    "category": "Other",
    "address": "170 Williams St",
    "hours": "Store Hours",
    "handicap": "",
    "editor": ""
  },
  {
    "index": "1405",
    "name": "J. Crew",
    "category": "Other",
    "address": "30 Rockefeller Center",
    "hours": "Store Hours",
    "handicap": "",
    "editor": ""
  },
  {
    "index": "1393",
    "name": "The New School",
    "category": "Other",
    "address": "72 5th Ave, 3rd Floor",
    "hours": "10am-6pm",
    "handicap": "",
    "editor": ""
  },
  {
    "index": "1374",
    "name": "crate and barrel",
    "category": "Other",
    "address": "650 Madison Ave",
    "hours": "10am-8pm",
    "handicap": "",
    "editor": ""
  },
  {
    "index": "1365",
    "name": "Chipotle Mexican Grill",
    "category": "Fast Food",
    "address": "150 E 52nd St",
    "hours": "Store Hours",
    "handicap": "",
    "editor": ""
  },
  {
    "index": "1332",
    "name": "Chipotle Mexican Grill",
    "category": "Fast Food",
    "address": "405 Ave of the Americas",
    "hours": "Store Hours",
    "handicap": "",
    "editor": ""
  },
  {
    "index": "1330",
    "name": "Chipotle Mexican Grill",
    "category": "Fast Food",
    "address": "140 Court St, Brooklyn",
    "hours": "Store Hours",
    "handicap": "",
    "editor": ""
  },
  {
    "index": "1312",
    "name": "West 2nd St Comfort Station",
    "category": "Public",
    "address": "W 2nd St",
    "hours": "park hours",
    "handicap": "no",
    "editor": ""
  },
  {
    "index": "1297",
    "name": "Slope Park",
    "category": "Public",
    "address": "6 Ave Bet 18 & 19 Sts",
    "hours": "park hours",
    "handicap": "",
    "editor": ""
  },
  {
    "index": "1296",
    "name": "Shore Road Park",
    "category": "Public",
    "address": "92nd St to 4 Ave, upper half by road",
    "hours": "park hours",
    "handicap": "",
    "editor": ""
  },
  {
    "index": "1283",
    "name": "Red Hook Park",
    "category": "Public",
    "address": "Otsega, Bay, Hicks, Lorraine, Court, Halleck st",
    "hours": "park hours",
    "handicap": "no",
    "editor": ""
  },
  {
    "index": "1280",
    "name": "PS 59 Summer Playground",
    "category": "Public",
    "address": "Throop, Park, Mytrle ave",
    "hours": "park hours",
    "handicap": "no",
    "editor": ""
  },
  {
    "index": "1278",
    "name": "PS 1 Playground",
    "category": "Public",
    "address": "46 % 47 streets, 3 Ave",
    "hours": "park hours",
    "handicap": "no",
    "editor": ""
  },
  {
    "index": "1258",
    "name": "Mellet Playground",
    "category": "Public",
    "address": "Ave V btwn East 13 & East 14 St",
    "hours": "park hours",
    "handicap": "no",
    "editor": ""
  },
  {
    "index": "1251",
    "name": "Marine Park Nature Center",
    "category": "Public",
    "address": "East 33rd St & Ave U ",
    "hours": "park hours",
    "handicap": "yes",
    "editor": ""
  },
  {
    "index": "1238",
    "name": "Jesse Owens Playground",
    "category": "Public",
    "address": "John J. Carty Park",
    "hours": "park hours",
    "handicap": "",
    "editor": ""
  },
  {
    "index": "1243",
    "name": "Leif Ericson Park & Square",
    "category": "Public",
    "address": "CLF behind CS adjacent to 5th Ave to 7th ave (high...",
    "hours": "park hours",
    "handicap": "no",
    "editor": ""
  },
  {
    "index": "1244",
    "name": "Lincoln Terrace Park",
    "category": "Public",
    "address": "Buffalo Ave/Protal St/New York Ave",
    "hours": "park hours",
    "handicap": "no",
    "editor": ""
  },
  {
    "index": "1235",
    "name": "J.J. Byrne Memorial Park",
    "category": "Public",
    "address": "3 to 4 St, 4 to 5 Ave",
    "hours": "park hours",
    "handicap": "no",
    "editor": ""
  },
  {
    "index": "1225",
    "name": "Gowanus Playground",
    "category": "Public",
    "address": "Wyckoff St btwn Bond & Hoyt St",
    "hours": "park hours",
    "handicap": "no",
    "editor": ""
  },
  {
    "index": "1224",
    "name": "Glenwood Playground",
    "category": "Public",
    "address": "Ralph Ave & Farragut Rd",
    "hours": "park hours",
    "handicap": "yes",
    "editor": ""
  },
  {
    "index": "1230",
    "name": "Harry Maze Memorial Park",
    "category": "Public",
    "address": "Ave D btwn East 56 & East 57 St",
    "hours": "park hours",
    "handicap": "no",
    "editor": ""
  },
  {
    "index": "1220",
    "name": "Friends Field",
    "category": "Public",
    "address": "Ave L, East 4 St, McDonald Ave, Ave M",
    "hours": "park hours",
    "handicap": "",
    "editor": ""
  },
  {
    "index": "1213",
    "name": "Dr. Richard Greene Playground",
    "category": "Public",
    "address": "Mother Gaston Blvd (Stone Ave) & Sutter Ave",
    "hours": "park hours",
    "handicap": "no",
    "editor": ""
  },
  {
    "index": "1214",
    "name": "Dyker Beach Park",
    "category": "Public",
    "address": "Shore Prkwy, 86 St, 7 to 14 Ave",
    "hours": "park hours",
    "handicap": "no",
    "editor": ""
  },
  {
    "index": "1209",
    "name": "Cypress Hills Park",
    "category": "Public",
    "address": "Blake & Euclid Ave",
    "hours": "park hours",
    "handicap": "no",
    "editor": ""
  },
  {
    "index": "1190",
    "name": "Canarsie Park",
    "category": "Public",
    "address": "Paerdegat Ave, Seaview Ave, East 93rd St, Skidmore...",
    "hours": "park hours",
    "handicap": "no",
    "editor": ""
  },
  {
    "index": "1182",
    "name": "Breukelen Playground",
    "category": "Public",
    "address": "Louisiana & Flatlands Ave",
    "hours": "park hours",
    "handicap": "no",
    "editor": ""
  },
  {
    "index": "1179",
    "name": "Betsy Head Playground (Administration Building)",
    "category": "Public",
    "address": "Livonia, Dumont, Hopkinson, Blake aves, Strauss St",
    "hours": "park hours",
    "handicap": "no",
    "editor": ""
  },
  {
    "index": "1163",
    "name": "Union Square Park",
    "category": "Public",
    "address": "Broadway to 4 Avenue, East 14 Street to East 17 st...",
    "hours": "park hours",
    "handicap": "",
    "editor": ""
  },
  {
    "index": "1157",
    "name": "St Nicholas Park (Arlington Edinboro Playground)",
    "category": "Public",
    "address": "West 140 St & St Nicholas Ave",
    "hours": "park hours",
    "handicap": "no",
    "editor": ""
  },
  {
    "index": "1171",
    "name": "Asser Levy Park",
    "category": "Public",
    "address": "Broadway, Surf, Sea Breeze Aves, Ocean Prkwy",
    "hours": "park hours",
    "handicap": "",
    "editor": ""
  },
  {
    "index": "1151",
    "name": "Sheltering Arms Park (Pool)",
    "category": "Public",
    "address": "West 129 St, Amsterdam Ave",
    "hours": "park hours",
    "handicap": "no",
    "editor": ""
  },
  {
    "index": "1154",
    "name": "St Nicholas Park South",
    "category": "Public",
    "address": "West 129 & 7 Ave",
    "hours": "park hours",
    "handicap": "no",
    "editor": ""
  },
  {
    "index": "1131",
    "name": "Orville & Wilbur Playground",
    "category": "Public",
    "address": "West 156 St & St. Nicholas Avenue",
    "hours": "park hours",
    "handicap": "no",
    "editor": ""
  },
  {
    "index": "1135",
    "name": "Renaissance Playground",
    "category": "Public",
    "address": "West 144 Street, between 7 & 8 avenues",
    "hours": "park hours",
    "handicap": "no",
    "editor": ""
  },
  {
    "index": "1128",
    "name": "Morningside Park",
    "category": "Public",
    "address": "Athletic Fields and Lawns from 114th St to 110th S...",
    "hours": "park hours",
    "handicap": "",
    "editor": ""
  },
  {
    "index": "1115",
    "name": "Jackie Robinson Park (Playground 152 CLII)",
    "category": "Public",
    "address": "West 152 & Bradhurst Avenue",
    "hours": "park hours",
    "handicap": "no",
    "editor": ""
  },
  {
    "index": "1123",
    "name": "Martin Luther King Houses",
    "category": "Public",
    "address": "Lenox ave, west 113 to west 114 streets ",
    "hours": "park hours",
    "handicap": "no",
    "editor": ""
  },
  {
    "index": "1112",
    "name": "Inwood Hill Park (Tennis Courts)",
    "category": "Public",
    "address": "Tennis courts & ballfields along Seaman Avenue fro...",
    "hours": "park hours",
    "handicap": "no",
    "editor": ""
  },
  {
    "index": "1107",
    "name": "Highbridge Park (Wallenberg Playground)",
    "category": "Public",
    "address": "West 189 St & Amsterdam Ave",
    "hours": "park hours",
    "handicap": "yes",
    "editor": ""
  },
  {
    "index": "1106",
    "name": "Highbridge Park (Wallenberg Playground)",
    "category": "Public",
    "address": "West 188 Street & Amsterdam Avenue",
    "hours": "park hours",
    "handicap": "yes",
    "editor": ""
  },
  {
    "index": "1105",
    "name": "Highbridge Park (Recreation Center)",
    "category": "Public",
    "address": "West 155 & Dyckman streets, Edgecombe & Am...",
    "hours": "park hours",
    "handicap": "",
    "editor": ""
  },
  {
    "index": "1079",
    "name": "Chelsea Recreation Center",
    "category": "Public",
    "address": "South of West 25 Street, 9 to 10 avenues",
    "hours": "park hours",
    "handicap": "",
    "editor": ""
  },
  {
    "index": "1062",
    "name": "Zimmerman Playground",
    "category": "Public",
    "address": "Britton Street, Barker Avenue, Olinville Avenue",
    "hours": "nyr",
    "handicap": "",
    "editor": ""
  },
  {
    "index": "1065",
    "name": "Alfred E. Smith Park",
    "category": "Public",
    "address": "Catherine Slip, Madison & South Streets",
    "hours": "park hours",
    "handicap": "",
    "editor": ""
  },
  {
    "index": "1040",
    "name": "Soundview Park Playground",
    "category": "Public",
    "address": "Metcalf Avenue between Seward and Randall Avenues",
    "hours": "park hours",
    "handicap": "",
    "editor": ""
  },
  {
    "index": "1029",
    "name": "Pelham South Park Headquarters",
    "category": "Public",
    "address": "Bruckner Boulevard, Eastchester Bay, Hutchinson",
    "hours": "park hours",
    "handicap": "",
    "editor": ""
  },
  {
    "index": "1020",
    "name": "Orchard Beach Pavilion",
    "category": "Public",
    "address": "Bruckner Boulevard, Eastchester Bay, Hutchinson",
    "hours": "park hours",
    "handicap": "",
    "editor": ""
  },
  {
    "index": "1021",
    "name": "Orchard Beach Pavilion",
    "category": "Public",
    "address": "Bruckner Boulevard, Eastchester Bay, Hutchinson",
    "hours": "park hours",
    "handicap": "",
    "editor": ""
  },
  {
    "index": "1025",
    "name": "Pelham Bay Park (Bruckner Boulevard and Wilkinson ...",
    "category": "Public",
    "address": "Bruckner Boulevard, Eastchester Bay, Hutchinson",
    "hours": "park hours",
    "handicap": "",
    "editor": ""
  },
  {
    "index": "1008",
    "name": "Macombs Dam Park",
    "category": "Public",
    "address": "East 161th street & Ruppert Place",
    "hours": "park hours",
    "handicap": "",
    "editor": ""
  },
  {
    "index": "1011",
    "name": "Marble Hill Playground",
    "category": "Public",
    "address": "Marble Hill Avenue, West 130 Street, West 228 Stre...",
    "hours": "park hours",
    "handicap": "",
    "editor": ""
  },
  {
    "index": "1001",
    "name": "Havemeyer",
    "category": "Public",
    "address": "Watson Avenue, Havennuemeter Avenue, Cross Bronx E...",
    "hours": "park hours",
    "handicap": "",
    "editor": ""
  },
  {
    "index": "1017",
    "name": "Mullaly Park (Skate Building)",
    "category": "Public",
    "address": "East 164 Street, Jerome Avenue, Macombs Dam Bridge...",
    "hours": "park hours",
    "handicap": "",
    "editor": ""
  },
  {
    "index": "489",
    "name": "Crotona Park (Environmental Center)",
    "category": "Public",
    "address": "Crotona Park North, Crotona Park South, Crotona Pa...",
    "hours": "park hours",
    "handicap": "no",
    "editor": ""
  },
  {
    "index": "482",
    "name": "Claremont Park",
    "category": "Public",
    "address": "Mount Eden Parkway & Morris Avenue",
    "hours": "park hours",
    "handicap": "no",
    "editor": ""
  },
  {
    "index": "469",
    "name": "Bronx Park",
    "category": "Public",
    "address": "East 219 Street & Bronx River Parkway",
    "hours": "park hours",
    "handicap": "",
    "editor": ""
  },
  {
    "index": "472",
    "name": "Bronx Park",
    "category": "Public",
    "address": "Bronx River Parkway & Rosewood Street",
    "hours": "park hours",
    "handicap": "",
    "editor": ""
  },
  {
    "index": "468",
    "name": "Bronx Park",
    "category": "Public",
    "address": "East 204 Street & W/S Bronx Park",
    "hours": "park hours",
    "handicap": "",
    "editor": ""
  },
  {
    "index": "465",
    "name": "Belmont Playground",
    "category": "Public",
    "address": "Crotona Avenue, East 181 Street",
    "hours": "park hours",
    "handicap": "",
    "editor": ""
  },
  {
    "index": "467",
    "name": "Bronx Park",
    "category": "Public",
    "address": "Bronx Park East between Bronxdale Avenue and Union...",
    "hours": "park hours",
    "handicap": "",
    "editor": ""
  },
  {
    "index": "462",
    "name": "Arcilla Playground",
    "category": "Public",
    "address": "Teller Avenue, Park Avenue, Clay Avenue, East 64 S...",
    "hours": "park hours",
    "handicap": "",
    "editor": ""
  },
  {
    "index": "451",
    "name": "Pier 84 Comfort Station",
    "category": "Public",
    "address": "Hudson River Greenway at 44th St",
    "hours": "",
    "handicap": "Yes",
    "editor": "254"
  },
  {
    "index": "458",
    "name": "Bronx River Parkway",
    "category": "Public",
    "address": "Bronx Blvd between East 226 St and East 228 St",
    "hours": "park hours",
    "handicap": "",
    "editor": ""
  },
  {
    "index": "440",
    "name": "Pathmark",
    "category": "Public",
    "address": "2965 Cropsey Ave., Brooklyn, NY",
    "hours": "24 hours",
    "handicap": "No",
    "editor": "237"
  },
  {
    "index": "441",
    "name": "Loehmanns Department Store",
    "category": "Public",
    "address": "2807 EAST 21ST STREET BROOKLYN, NY 11235 (718) 368...",
    "hours": "10~9 M~S, 11~7 Sun",
    "handicap": "No",
    "editor": "237"
  },
  {
    "index": "429",
    "name": "Playground",
    "category": "Public",
    "address": "Market St. & Cherry St.",
    "hours": "10:00 AM to 7:00 PM",
    "handicap": "No",
    "editor": "222"
  },
  {
    "index": "398",
    "name": "Duane Reade Pharmacy",
    "category": "Other",
    "address": "1270 Broadway # 1 New York, NY 10001",
    "hours": "8:30 am ~ 7 pm, Saturday and Sunday: closed",
    "handicap": "No",
    "editor": "178"
  },
  {
    "index": "392",
    "name": "The Riviera Cafe",
    "category": "Other",
    "address": "225 W 4th St, New York, NY 10014",
    "hours": "Mon ~ Thu : 11 AM ~ 12:30 AM Fri ~ Sat : 11 AM ~ 1...",
    "handicap": "No",
    "editor": "162"
  },
  {
    "index": "380",
    "name": "Europa Cafe",
    "category": "Other",
    "address": "1485 Broadway, New York, NY 10036",
    "hours": "Mon ~ Sun : 24 Hrs",
    "handicap": "Yes",
    "editor": "206"
  },
  {
    "index": "387",
    "name": "Amys Bread (cafe)",
    "category": "Other",
    "address": "250 Bleecker St at Leroy Street, New York, NY 1001...",
    "hours": "Mon : 7:30 AM ~ 9 PM Tue ~ Fri: 7:30 AM ~ 11 PM Sa...",
    "handicap": "Yes",
    "editor": "206"
  },
  {
    "index": "369",
    "name": "STARBUCKS",
    "category": "Coffee Shop",
    "address": "450 7th Avenue New York NY, 10017",
    "hours": "Mon ~ Fri : 7 AM ~ 8 PM",
    "handicap": "No",
    "editor": ""
  },
  {
    "index": "348",
    "name": "MOMA",
    "category": "Other",
    "address": "11 West 53 Street between 5th and 6th Ave.",
    "hours": "Sat ~ Thu : 10:30 AM ~ 5:30 PM Fri: 10:30 AM ~ 8:0...",
    "handicap": "No",
    "editor": "176"
  },
  {
    "index": "342",
    "name": "The National Underground",
    "category": "Other",
    "address": "159 E Houston St, New York, NY 10012",
    "hours": "Mon ~ Sun : 7:00 PM ~ 3:00 AM",
    "handicap": "No",
    "editor": "206"
  },
  {
    "index": "324",
    "name": "Grand Harmony",
    "category": "Other",
    "address": "94 Mott St, New York, NY 10013",
    "hours": "",
    "handicap": "No",
    "editor": "206"
  },
  {
    "index": "310",
    "name": "17 Murray St Restaurant",
    "category": "Other",
    "address": "17 Murray St, New York, NY 10007",
    "hours": "",
    "handicap": "No",
    "editor": "206"
  },
  {
    "index": "308",
    "name": "World Financial Center",
    "category": "Other",
    "address": "World Financial Center, New York, NY 10280",
    "hours": "",
    "handicap": "No",
    "editor": "206"
  },
  {
    "index": "303",
    "name": "Cosmos Service Inc",
    "category": "Public",
    "address": "65 Broadway, New York, NY 10006",
    "hours": "",
    "handicap": "No",
    "editor": "206"
  },
  {
    "index": "286",
    "name": "Sheraton Manhattan Hotel",
    "category": "Hotel",
    "address": "790 7th Avenue 51st Street New York, New York 1001...",
    "hours": "",
    "handicap": "Yes",
    "editor": "177"
  },
  {
    "index": "263",
    "name": "Staten Island Ferry",
    "category": "Public",
    "address": "Whitehall Street",
    "hours": "24 hours",
    "handicap": "Yes",
    "editor": "169"
  },
  {
    "index": "264",
    "name": "Staten Island Ferry",
    "category": "Public",
    "address": "1 Bay Street",
    "hours": "24 hours",
    "handicap": "Yes",
    "editor": "169"
  },
  {
    "index": "248",
    "name": "Universal News",
    "category": "Book Store",
    "address": "4 Columbus Circle",
    "hours": "",
    "handicap": "No",
    "editor": "101"
  },
  {
    "index": "235",
    "name": "Burritoville",
    "category": "Other",
    "address": "298 Bleeker St.",
    "hours": "",
    "handicap": "No",
    "editor": "101"
  },
  {
    "index": "238",
    "name": "Lennys NYC",
    "category": "Coffee Shop",
    "address": "48th Street (between 5th and 6th)",
    "hours": "M to Thur 7am to 9pm, Fri 7am to 8pm, Sat to Sun 8...",
    "handicap": "No",
    "editor": "101"
  },
  {
    "index": "232",
    "name": "Starbucks",
    "category": "Coffee Shop",
    "address": "63 W. 63rd st. NY",
    "hours": "",
    "handicap": "No",
    "editor": "162"
  },
  {
    "index": "230",
    "name": "Slane",
    "category": "Other",
    "address": "102 MacDougal St.",
    "hours": "Store Hours",
    "handicap": "Yes",
    "editor": "164"
  },
  {
    "index": "231",
    "name": "Sarahs Bagel Cafe",
    "category": "Coffee Shop",
    "address": "271 Bleeker St",
    "hours": "",
    "handicap": "No",
    "editor": "163"
  },
  {
    "index": "226",
    "name": "International Hair",
    "category": "Other",
    "address": "160 West 66 street",
    "hours": "",
    "handicap": "No",
    "editor": "162"
  },
  {
    "index": "221",
    "name": "Salon G",
    "category": "Other",
    "address": "Sullivan St. Between Bleecker and 3rd",
    "hours": "",
    "handicap": "No",
    "editor": "164"
  },
  {
    "index": "209",
    "name": "Josephia Restaurants",
    "category": "Other",
    "address": "Columbus Ave off W 63rd St",
    "hours": "",
    "handicap": "Yes",
    "editor": "162"
  },
  {
    "index": "179",
    "name": "Borders",
    "category": "Book Store",
    "address": "100 Broadway",
    "hours": "7:30am to 8pm",
    "handicap": "No",
    "editor": "130"
  },
  {
    "index": "178",
    "name": "St. Pauls Chapel",
    "category": "Other",
    "address": "Church St. (across from WTC Path Station)",
    "hours": "",
    "handicap": "No",
    "editor": "130"
  },
  {
    "index": "167",
    "name": "Pietrasanta",
    "category": "Other",
    "address": "683 Ninth Avenue (47th Street)",
    "hours": "Normal Business",
    "handicap": "No",
    "editor": "140"
  },
  {
    "index": "151",
    "name": "Starbucks",
    "category": "Coffee Shop",
    "address": "51 Astor Place",
    "hours": "Starbucks Hours",
    "handicap": "No",
    "editor": "109"
  },
  {
    "index": "148",
    "name": "BARNES & NOBLE",
    "category": "Book Store",
    "address": "1972 Broadway, New York, NY 10023",
    "hours": "",
    "handicap": "No",
    "editor": "101"
  },
  {
    "index": "147",
    "name": "BARNES & NOBLE",
    "category": "Book Store",
    "address": "675 Avenue of the Americas, New York, NY 10010",
    "hours": "",
    "handicap": "No",
    "editor": "101"
  },
  {
    "index": "144",
    "name": "BARNES & NOBLE",
    "category": "Book Store",
    "address": "160 E 54th St, New York, NY 10022",
    "hours": "",
    "handicap": "No",
    "editor": "101"
  },
  {
    "index": "128",
    "name": "Heckscher House",
    "category": "Public",
    "address": "Heckscher Playground, 62nd St. Mid~Park",
    "hours": "during park open hour",
    "handicap": "No",
    "editor": "101"
  },
  {
    "index": "93",
    "name": "Starbucks",
    "category": "Coffee Shop",
    "address": "1166 Avenue of the Americas",
    "hours": "Starbucks Hours",
    "handicap": "No",
    "editor": "109"
  },
  {
    "index": "75",
    "name": "STARBUCKS",
    "category": "Coffee Shop",
    "address": "1 Penn Plaza New York NY, 10119",
    "hours": "",
    "handicap": "",
    "editor": ""
  },
  {
    "index": "60",
    "name": "STARBUCKS",
    "category": "Coffee Shop",
    "address": "770 Eighth Ave NY NY, 10019",
    "hours": "",
    "handicap": "",
    "editor": ""
  },
  {
    "index": "14",
    "name": "Starbucks",
    "category": "Coffee Shop",
    "address": "152 ~ 154 Columbus Avenue",
    "hours": "Starbucks Hours",
    "handicap": "No",
    "editor": "109"
  }
]
